$GPGGA,125325.536,4825.0782,N,00428.3300,W,1,04,1.7,95.6,M,52.0,M,,0000*7B
$GPGSA,A,3,26,16,31,29,,,,,,,,,4.5,1.7,4.2*39
$GPRMC,125325.536,A,4825.0782,N,00428.3300,W,0.91,356.52,030521,,,A*7C
$GPGGA,125326.536,4825.0780,N,00428.3302,W,1,04,1.7,95.5,M,52.0,M,,0000*7B
$GPGSA,A,3,26,16,31,29,,,,,,,,,4.5,1.7,4.2*39
$GPRMC,125326.536,A,4825.0780,N,00428.3302,W,0.56,356.52,030521,,,A*74
$GPGGA,125327.536,4825.0778,N,00428.3300,W,1,04,1.7,95.5,M,52.0,M,,0000*7F
$GPGSA,A,3,26,16,31,29,,,,,,,,,4.5,1.7,4.2*39
$GPRMC,125327.536,A,4825.0778,N,00428.3300,W,0.37,356.52,030521,,,A*77
$GPGGA,125328.536,4825.0781,N,00428.3303,W,1,04,1.7,95.3,M,52.0,M,,0000*73
$GPGSA,A,3,26,16,31,29,,,,,,,,,4.5,1.7,4.2*39
$GPGSV,3,1,12,26,73,294,19,16,45,299,26,31,39,198,23,29,36,062,28*76
$GPGSV,3,2,12,14,53,285,,28,41,081,,15,40,276,,09,31,088,*79
$GPGSV,3,3,12,11,15,226,,05,14,314,,23,03,136,,27,00,353,*78
$GPRMC,125328.536,A,4825.0781,N,00428.3303,W,0.94,356.52,030521,,,A*74
$GPGGA,125329.536,4825.0783,N,00428.3306,W,1,04,1.7,95.1,M,52.0,M,,0000*77
$GPGSA,A,3,26,16,31,29,,,,,,,,,4.5,1.7,4.2*39
$GPRMC,125329.536,A,4825.0783,N,00428.3306,W,0.68,356.52,030521,,,A*71
$GPGGA,125330.536,4825.0785,N,00428.3308,W,1,04,1.7,95.2,M,52.0,M,,0000*74
$GPGSA,A,3,26,16,31,29,,,,,,,,,4.5,1.7,4.2*39
$GPRMC,125330.536,A,4825.0785,N,00428.3308,W,0.72,356.52,030521,,,A*7A
$GPGGA,125331.536,4825.0787,N,00428.3312,W,1,04,1.7,95.3,M,52.0,M,,0000*7D
$GPGSA,A,3,26,16,31,29,,,,,,,,,4.5,1.7,4.2*39
$GPRMC,125331.536,A,4825.0787,N,00428.3312,W,1.21,340.89,030521,,,A*74
$GPGGA,125332.536,4825.0786,N,00428.3312,W,1,04,1.7,95.1,M,52.0,M,,0000*7D
$GPGSA,A,3,26,16,31,29,,,,,,,,,4.5,1.7,4.2*39
$GPRMC,125332.536,A,4825.0786,N,00428.3312,W,0.58,340.89,030521,,,A*79
$GPGGA,125333.536,4825.0785,N,00428.3315,W,1,04,1.7,94.9,M,52.0,M,,0000*71
$GPGSA,A,3,26,16,31,29,,,,,,,,,4.5,1.7,4.2*39
$GPGSV,3,1,12,26,73,294,18,16,45,299,26,31,39,198,22,29,36,062,28*76
$GPGSV,3,2,12,14,53,285,,28,41,081,,15,40,276,,09,31,088,*79
$GPGSV,3,3,12,11,15,226,,05,14,314,,23,03,136,,27,00,353,*78
$GPRMC,125333.536,A,4825.0785,N,00428.3315,W,0.48,340.89,030521,,,A*7D
$GPGGA,125334.536,4825.0782,N,00428.3316,W,1,04,1.7,94.7,M,52.0,M,,0000*7C
$GPGSA,A,3,26,16,31,29,,,,,,,,,4.5,1.7,4.2*39
$GPRMC,125334.536,A,4825.0782,N,00428.3316,W,0.57,340.89,030521,,,A*70
$GPGGA,125335.536,4825.0777,N,00428.3314,W,1,04,1.7,94.5,M,52.0,M,,0000*77
$GPGSA,A,3,26,16,31,29,,,,,,,,,4.5,1.7,4.2*39
$GPRMC,125335.536,A,4825.0777,N,00428.3314,W,0.87,340.89,030521,,,A*74
$GPGGA,125336.536,4825.0776,N,00428.3312,W,1,04,1.7,94.4,M,52.0,M,,0000*72
$GPGSA,A,3,26,16,31,29,,,,,,,,,4.5,1.7,4.2*39
$GPRMC,125336.536,A,4825.0776,N,00428.3312,W,0.62,340.89,030521,,,A*7B
$GPGGA,125337.536,4825.0774,N,00428.3308,W,1,04,1.7,94.2,M,52.0,M,,0000*7C
$GPGSA,A,3,26,16,31,29,,,,,,,,,4.5,1.7,4.2*39
$GPRMC,125337.536,A,4825.0774,N,00428.3308,W,0.93,340.89,030521,,,A*7D
$GPGGA,125338.536,4825.0769,N,00428.3304,W,1,04,1.7,93.9,M,52.0,M,,0000*7F
$GPGSA,A,3,26,16,31,29,,,,,,,,,4.5,1.7,4.2*39
$GPGSV,3,1,12,26,73,294,19,16,45,299,27,31,39,198,22,29,36,062,27*79
$GPGSV,3,2,12,14,53,285,,28,41,081,,15,40,276,,09,31,088,*79
$GPGSV,3,3,12,11,15,226,,05,14,314,,23,03,136,,27,00,353,*78
$GPRMC,125338.536,A,4825.0769,N,00428.3304,W,1.58,65.70,030521,,,A*46
$GPGGA,125339.536,4825.0766,N,00428.3303,W,1,04,1.7,93.6,M,52.0,M,,0000*79
$GPGSA,A,3,26,16,31,29,,,,,,,,,4.5,1.7,4.2*39
$GPRMC,125339.536,A,4825.0766,N,00428.3303,W,1.46,92.77,030521,,,A*4F
$GPGGA,125340.536,4825.0766,N,00428.3302,W,1,04,1.7,93.5,M,52.0,M,,0000*75
$GPGSA,A,3,26,16,31,29,,,,,,,,,4.5,1.7,4.2*39
$GPRMC,125340.536,A,4825.0766,N,00428.3302,W,0.85,92.77,030521,,,A*4E
$GPGGA,125341.536,4825.0767,N,00428.3301,W,1,04,1.7,93.4,M,52.0,M,,0000*77
$GPGSA,A,3,26,16,31,29,,,,,,,,,4.5,1.7,4.2*39
$GPRMC,125341.536,A,4825.0767,N,00428.3301,W,0.58,92.77,030521,,,A*4D
$GPGGA,125342.536,4825.0768,N,00428.3301,W,1,04,1.7,93.2,M,52.0,M,,0000*7D
$GPGSA,A,3,26,16,31,29,,,,,,,,,4.5,1.7,4.2*39
$GPRMC,125342.536,A,4825.0768,N,00428.3301,W,0.09,92.77,030521,,,A*45
$GPGGA,125343.536,4825.0765,N,00428.3302,W,1,04,1.7,93.1,M,52.0,M,,0000*71
$GPGSA,A,3,26,16,31,29,,,,,,,,,4.5,1.7,4.2*39
$GPGSV,3,1,12,26,73,294,19,16,45,299,27,31,39,198,21,29,36,062,26*7B
$GPGSV,3,2,12,14,53,285,,28,41,081,,15,40,276,,09,31,088,*79
$GPGSV,3,3,12,11,15,226,,05,14,314,,23,03,136,,27,00,353,*78
$GPRMC,125343.536,A,4825.0765,N,00428.3302,W,0.57,92.77,030521,,,A*41
$GPGGA,125344.536,4825.0765,N,00428.3304,W,1,04,1.7,92.9,M,52.0,M,,0000*79
$GPGSA,A,3,26,16,31,29,,,,,,,,,4.5,1.7,4.2*39
$GPRMC,125344.536,A,4825.0765,N,00428.3304,W,0.36,92.77,030521,,,A*47
$GPGGA,125345.536,4825.0768,N,00428.3308,W,1,04,1.7,92.9,M,52.0,M,,0000*79
$GPGSA,A,3,26,16,31,29,,,,,,,,,4.5,1.7,4.2*39
$GPRMC,125345.536,A,4825.0768,N,00428.3308,W,0.35,92.77,030521,,,A*44
$GPGGA,125346.536,4825.0768,N,00428.3308,W,1,04,1.7,92.8,M,52.0,M,,0000*7B
$GPGSA,A,3,26,16,31,29,,,,,,,,,4.5,1.7,4.2*39
$GPRMC,125346.536,A,4825.0768,N,00428.3308,W,0.15,92.77,030521,,,A*45
$GPGGA,125347.536,4825.0770,N,00428.3309,W,1,04,1.7,92.6,M,52.0,M,,0000*7C
$GPGSA,A,3,26,16,31,29,,,,,,,,,4.5,1.7,4.2*39
$GPRMC,125347.536,A,4825.0770,N,00428.3309,W,0.31,92.77,030521,,,A*4A
$GPGGA,125348.536,4825.0771,N,00428.3309,W,1,04,1.7,92.5,M,52.0,M,,0000*71
$GPGSA,A,3,26,16,31,29,,,,,,,,,4.5,1.7,4.2*39
$GPGSV,3,1,12,26,73,294,20,16,45,299,27,31,39,198,21,29,36,062,26*71
$GPGSV,3,2,12,14,53,285,,28,41,081,,15,40,276,,09,31,088,*79
$GPGSV,3,3,12,11,15,226,,05,14,314,,23,03,136,,27,00,353,*78
$GPRMC,125348.536,A,4825.0771,N,00428.3309,W,0.16,92.77,030521,,,A*41
$GPGGA,125349.536,4825.0770,N,00428.3309,W,1,04,1.7,92.5,M,52.0,M,,0000*71
$GPGSA,A,3,26,16,31,29,,,,,,,,,4.5,1.7,4.2*39
$GPRMC,125349.536,A,4825.0770,N,00428.3309,W,0.42,92.77,030521,,,A*40
$GPGGA,125350.536,4825.0766,N,00428.3312,W,1,04,1.7,92.4,M,52.0,M,,0000*75
$GPGSA,A,3,26,16,31,29,,,,,,,,,4.5,1.7,4.2*39
$GPRMC,125350.536,A,4825.0766,N,00428.3312,W,0.91,92.77,030521,,,A*4B
$GPGGA,125351.536,4825.0768,N,00428.3312,W,1,04,1.7,92.4,M,52.0,M,,0000*7A
$GPGSA,A,3,26,16,31,29,,,,,,,,,4.5,1.7,4.2*39
$GPRMC,125351.536,A,4825.0768,N,00428.3312,W,0.16,92.77,030521,,,A*4B
$GPGGA,125352.536,4825.0770,N,00428.3312,W,1,04,1.7,92.5,M,52.0,M,,0000*71
$GPGSA,A,3,26,16,31,29,,,,,,,,,4.5,1.7,4.2*39
$GPRMC,125352.536,A,4825.0770,N,00428.3312,W,0.35,92.77,030521,,,A*40
$GPGGA,125353.536,4825.0768,N,00428.3314,W,1,04,1.7,92.4,M,52.0,M,,0000*7E
$GPGSA,A,3,26,16,31,29,,,,,,,,,4.5,1.7,4.2*39
$GPGSV,3,1,12,26,73,294,21,16,45,299,27,31,39,198,21,29,36,062,17*72
$GPGSV,3,2,12,14,53,285,,28,41,081,,15,40,276,,09,31,088,*79
$GPGSV,3,3,12,11,15,226,,05,14,314,,23,03,136,,27,00,353,*78
$GPRMC,125353.536,A,4825.0768,N,00428.3314,W,0.60,92.77,030521,,,A*4E
$GPGGA,125354.536,4825.0765,N,00428.3312,W,1,04,1.7,92.4,M,52.0,M,,0000*72
$GPGSA,A,3,26,16,31,29,,,,,,,,,4.5,1.7,4.2*39
$GPRMC,125354.536,A,4825.0765,N,00428.3312,W,0.55,92.77,030521,,,A*44
$GPGGA,125355.536,4825.0762,N,00428.3308,W,1,04,1.7,92.5,M,52.0,M,,0000*7E
$GPGSA,A,3,26,16,31,29,,,,,,,,,4.5,1.7,4.2*39
$GPRMC,125355.536,A,4825.0762,N,00428.3308,W,0.89,92.77,030521,,,A*48
$GPGGA,125356.536,4825.0762,N,00428.3305,W,1,04,1.7,92.5,M,52.0,M,,0000*70
$GPGSA,A,3,26,16,31,29,,,,,,,,,4.5,1.7,4.2*39
$GPRMC,125356.536,A,4825.0762,N,00428.3305,W,0.96,92.77,030521,,,A*48
$GPGGA,125357.536,4825.0764,N,00428.3300,W,1,04,1.7,92.5,M,52.0,M,,0000*72
$GPGSA,A,3,26,16,31,29,,,,,,,,,4.5,1.7,4.2*39
$GPRMC,125357.536,A,4825.0764,N,00428.3300,W,0.99,92.77,030521,,,A*45
$GPGGA,125358.536,4825.0764,N,00428.3302,W,1,04,1.7,92.5,M,52.0,M,,0000*7F
$GPGSA,A,3,26,16,31,29,,,,,,,,,4.5,1.7,4.2*39
$GPGSV,3,1,12,26,73,294,20,16,45,299,27,31,39,198,20,29,36,062,19*7C
$GPGSV,3,2,12,14,53,285,,28,41,081,,15,40,276,,09,31,088,*79
$GPGSV,3,3,12,11,15,226,,05,14,314,,23,03,136,,27,00,353,*78
$GPRMC,125358.536,A,4825.0764,N,00428.3302,W,0.16,92.77,030521,,,A*4F
$GPGGA,125359.536,4825.0767,N,00428.3300,W,1,04,1.7,92.4,M,52.0,M,,0000*7E
$GPGSA,A,3,26,16,31,29,,,,,,,,,4.5,1.7,4.2*39
$GPRMC,125359.536,A,4825.0767,N,00428.3300,W,0.63,92.77,030521,,,A*4D
$GPGGA,125400.536,4825.0771,N,00428.3296,W,1,04,1.7,92.4,M,52.0,M,,0000*7C
$GPGSA,A,3,26,16,31,29,,,,,,,,,4.5,1.7,4.2*39
$GPRMC,125400.536,A,4825.0771,N,00428.3296,W,1.13,92.77,030521,,,A*49
$GPGGA,125401.536,4825.0774,N,00428.3290,W,1,04,1.7,92.3,M,52.0,M,,0000*79
$GPGSA,A,3,26,16,31,29,,,,,,,,,4.5,1.7,4.2*39
$GPRMC,125401.536,A,4825.0774,N,00428.3290,W,1.32,79.41,030521,,,A*48
$GPGGA,125402.536,4825.0775,N,00428.3287,W,1,04,1.7,92.3,M,52.0,M,,0000*7D
$GPGSA,A,3,26,16,31,29,,,,,,,,,4.5,1.7,4.2*39
$GPRMC,125402.536,A,4825.0775,N,00428.3287,W,1.04,79.41,030521,,,A*49
$GPGGA,125403.536,4825.0779,N,00428.3282,W,1,04,1.7,92.4,M,52.0,M,,0000*72
$GPGSA,A,3,26,16,31,29,,,,,,,,,4.5,1.7,4.2*39
$GPGSV,3,1,12,26,73,294,21,16,45,299,25,31,39,198,20,29,36,062,19*7F
$GPGSV,3,2,12,14,53,285,,28,41,081,,15,40,276,,09,31,088,*79
$GPGSV,3,3,12,11,15,226,,05,14,314,,23,03,136,,27,00,353,*78
$GPRMC,125403.536,A,4825.0779,N,00428.3282,W,1.40,66.13,030521,,,A*48
$GPGGA,125404.536,4825.0778,N,00428.3280,W,1,04,1.7,92.5,M,52.0,M,,0000*77
$GPGSA,A,3,26,16,31,29,,,,,,,,,4.5,1.7,4.2*39
$GPRMC,125404.536,A,4825.0778,N,00428.3280,W,0.79,66.13,030521,,,A*47
$GPGGA,125405.536,4825.0777,N,00428.3277,W,1,04,1.7,92.5,M,52.0,M,,0000*71
$GPGSA,A,3,26,16,31,29,,,,,,,,,4.5,1.7,4.2*39